name,latitude,longitude,population,color
Africa,37.7244,-122.421,0.083884,#c0c0c0
Asia,37.7107,-122.4372,0.058439,#FFFF33
Oceania,37.8021,-122.4369,0.40364,#FF7F00
Europe,37.793,-122.416,0.33259,#ff0000
North America,37.8045,-122.4076,0.28784,#FF7F00
South America,37.7924,-122.4352,0.33382,#FF7F00
Polar Regions,37.7868,-122.4538,0.19965,#FF7F00
Central America & Caribbean,37.8014,-122.4182,0.34165,#FF7F00
Middle East & North Africa,37.7144,-122.4113,0.064774,#999999